[
  {
    "id": "d38e4639-a8e4-4d91-8630-81096bc1e4ef",
    "category": "Shelter",
    "city": "Seattle, WA",
    "name": "Anchor South King County Shelter System - Catholic Community Services (Kent)",
    "website": "http://ccsww.org/services/anchor-south-king-co-shelter-system",
    "phone": "Kent: (253) 854-0077 x5104",
    "address": "1229 W Smith St, Kent WA 98032 Federal Way Day Center 33505 14th Place S No. D Federal Way, WA 98003 Kent Family Center 1229 W Smith St, Kent WA 98032",
    "hours": "Shelter intake - Kent Community Engagement Center: Mon. - Fri., 10 a.m. - 2:30 p.m., closed Wed.",
    "description": "Offers 24/7 shelter and essential needs support such as meals, toiletries and access to other basic needs items. Supportive case management services for education, employment, family reunification, mental health and addiction recovery.",
    "latitude": "47.3014842",
    "longitude": "-122.3172974"
  },
  {
    "id": "c06b6786-c2af-4860-b6fa-4ff4319251ca",
    "category": "Shelter",
    "city": "Seattle, WA",
    "name": "Anchor South King County Shelter System - Catholic Community Services (Federal Way)",
    "website": "http://ccsww.org/services/anchor-south-king-co-shelter-system",
    "phone": "Federal Way: (253) 893-7895",
    "address": "33505 14th Place S No. D Federal Way, WA 98003",
    "hours": "Shelter intake - Mon.-Fri., 10 a.m. - 4 p.m.",
    "description": "Offers 24/7 shelter and essential needs support such as meals, toiletries and access to other basic needs items. Supportive case management services for education, employment, family reunification, mental health and addiction recovery.",
    "latitude": "47.2799167",
    "longitude": "-122.3158986"
  },
  {
    "id": "e12eff6d-f2a3-49d6-a3f6-f9594e8ea810",
    "category": "Shelter",
    "city": "Seattle, WA",
    "name": "Blaine Veterans Center Enhanced Shelter",
    "website": "http://compasshousingalliance.org/emergency-programs/blaine-center",
    "phone": "(206) 474-1660"
  },
  {
    "id": "290f72b6-87a9-466f-80c0-60435dbfe2bb",
    "category": "Shelter",
    "city": "Seattle, WA",
    "name": "Address 150 Denny Way, Seattle, WA 98109",
    "hours": "Mon. - Fri., 9 a.m. – 4 p.m.",
    "description": "By referral shelter that provides 36 beds with 24-hour access, housing navigation support, and case management services. Serves single men 18 years and older. For referrals, visit the Compass Client Services office in person Mon. – Fri., 9 a.m. – 4 p.m., 77 S. Washington St., Seattle, (206) 474-1630"
  },
  {
    "id": "06ab5bca-898a-46f9-bc82-28679f989fd9",
    "category": "Shelter",
    "city": "Seattle, WA",
    "name": "Bread of Life Mission Shelter",
    "website": "http://breadoflifemission.org/emergency-services-overview",
    "phone": "(206) 682-3579",
    "address": "97 S Main St. Seattle, WA 98104",
    "hours": "24/7/365 shelter sign up for new clients. Only available to men 18 and older.",
    "description": "Services include shelter for men age 18 and older, clothing, showers, meals, computers lab, recovery services.",
    "latitude": "47.5999029",
    "longitude": "-122.3344583"
  },
  {
    "id": "01340827-cc87-4063-9157-71895b61ede0",
    "category": "Shelter",
    "city": "Seattle, WA",
    "name": "Call BlackLine",
    "website": "http://callblackline.com",
    "phone": "800-604-5841",
    "hours": "24 hours, 7 days a week",
    "description": "BlackLine 800-604-5841 is a 24-hours a day, 7 days a week hotline you can call or text. BlackLine provides a space for peer support, counseling, witnessing and affirming the lived experiences to folxs who are most impacted by systematic oppression with an LGBTQ+ Black Femme Lens. BlackLine prioritizes BIPOC (Black, Indigenous and People of Color). BlackLine is anonymous and confidential and can provide immediate crisis counseling to those who call upset, need to talk with someone immediately, or are in distress."
  },
  {
    "id": "ef6b5658-460f-44e2-8f32-e68b30b5cf6f",
    "category": "Shelter",
    "city": "Seattle, WA",
    "name": "Catholic Community Services, Michael’s Place",
    "website": "http://ccsww.org/services/michaels-place",
    "phone": "(206) 726-5688",
    "address": "1307 E Spring St. Seattle, WA 98122",
    "hours": "Mon.-Fri.: 9 a.m.—5 p.m.",
    "description": "Michael’s Place offers eighteen beds of transitional housing for Veterans who are homeless, in recovery from drugs and alcohol, and/or have a mental health diagnosis. There are daily chores, weekly room inspections and group therapy meetings throughout the week to support all residents in their recovery. Michael’s Place is community living. This means Veterans stay in either a private or shared room in a large house with communal living and eating areas. There’s a weekly community meal, holiday gatherings and other events to bring residents together. Application is done via the VA system or King County Veterans organizations. Call for more information.",
    "latitude": "47.6114215",
    "longitude": "-122.3151274"
  },
  {
    "id": "322945d7-db3a-4c16-ac27-bb2030bd6418",
    "category": "Shelter",
    "city": "Seattle, WA",
    "name": "Compass Housing Alliance",
    "website": "http://compasshousingalliance.org",
    "phone": "(206) 474-1000",
    "address": "220 Dexter Ave. N, Seattle, WA 98109",
    "hours": "Mon. – Fri., 9 a.m. – 4 p.m.",
    "description": "Affordable housing services, and shelters, family programs, emergency programs, and veterans programs. Shelters provide both a safe place to sleep and case management resources. Enhanced shelters with 24/7 on-site support services and intensive case management including housing navigation services. If you are currently a homeless Veteran or at risk of losing housing, please call the VA’s Homeless Outreach Clinic at 425-203-7200.",
    "latitude": "47.6199799",
    "longitude": "-122.342106"
  },
  {
    "id": "38616463-b747-4f4b-84d6-92c9c46f6325",
    "category": "Shelter",
    "city": "Seattle, WA",
    "name": "DAWN",
    "website": "http://dawnrising.org",
    "phone": "(425) 656-7867",
    "address": "221 W Gowe St. Kent, WA",
    "hours": "Shelter and Helpline: 24/7 Gowe building: 8 a.m. – 5 p.m. by appointment only",
    "description": "Domestic violence non-profit agency offering various advocacy services, mental health services, and a confidential emergency shelter to adults, with or without children, who are survivors of intimate partner domestic violence.",
    "latitude": "47.381088",
    "longitude": "-122.2345001"
  },
  {
    "id": "2b7beb7e-21ba-490e-a7f2-82d5287eecca",
    "category": "Shelter",
    "city": "Seattle, WA",
    "name": "DESC Permanent Supportive Housing",
    "website": "http://desc.org/what-we-do/survival-services",
    "phone": "(206) 464-1570",
    "address": "515 3rd Ave. Seattle, WA 98104",
    "hours": "Mon.—Fri.: 9 a.m.—5 p.m.",
    "description": "Provides low-barrier, long-term housing enriched with robust support services designed to meet the needs of the most vulnerable members of our community who have experience homelessness, substance use disorders, and serious mental illness. Tenants cannot apply directly to DESC housing and must contact a Coordinated Entry for All Regional Access Point to be enrolled.",
    "latitude": "47.6023952",
    "longitude": "-122.331355"
  },
  {
    "id": "e39d26a7-0bc1-448d-be5c-098af5a68ce8",
    "category": "Shelter",
    "city": "Seattle, WA",
    "name": "DESC Shelters (Navigation Center)",
    "website": "http://desc.org/what-we-do/survival-services/",
    "phone": "(206) 322-1763",
    "address": "606 12th Ave.Seattle, WA 98122",
    "hours": "24/7",
    "description": "Operates Navigation Center, a low-barrier, service-enriched shelter targeting high-needs adults experiencing homelessness who are living in encampments, and who have acute behavioral health issues that may prevent them from staying in regular congregate shelters. Referrals to the Navigation Center come from HOPE Team; Kerner Scott requires referral. No walk-ins.",
    "latitude": "47.60771829999999",
    "longitude": "-122.3167919"
  },
  {
    "id": "9a8a3202-8dfa-4912-92e0-b1fb33aeb703",
    "category": "Shelter",
    "city": "Seattle, WA",
    "name": "Friends of Youth",
    "website": "http://friendsofyouth.org/services",
    "phone": "(425) 869-6490; Shelter for minors under 18: (206) 236-5437",
    "address": "12735 Willows Road NE, Kirkland WA",
    "hours": "Main office: Mon.–Fri.: 9 a.m.–5 p.m.; shelter: 24/7",
    "description": "Provides a comprehensive range of therapeutic services for youth, young adults and families from all backgrounds. Providing basic needs resources for young adults including shelter, food, showers, laundry, clothing and hygiene materials. Access to case management, behavioral health and employment services. Email: info@friendsofyouth.org",
    "latitude": "47.7151837",
    "longitude": "-122.1540735"
  },
  {
    "id": "45f4f57b-6fb6-4046-a18f-d07492b2116f",
    "category": "Shelter",
    "city": "Seattle, WA",
    "name": "Harborview Medical Respite",
    "website": "http://uwmedicine.org/provider-resource/refer-patient/medical-respite",
    "phone": "(206) 744-5200",
    "address": "800 Jefferson St. Seattle, WA 98104",
    "hours": "24/7",
    "description": "Short-term respite beds serving homeless adults who are too sick to be in a regular shelter and are leaving any hospital, clinic or emergency department. Patient must have an acute medical problem that requires daily nursing care. Social worker or health care provider must contact screener for an intake.",
    "latitude": "47.6047038",
    "longitude": "-122.3250313"
  },
  {
    "id": "86877e81-2955-45a4-8b61-e22e9cfd17b5",
    "category": "Shelter",
    "city": "Seattle, WA",
    "name": "Hopelink - Redmond Market and Service Center",
    "website": "http://hopelink.org/location/redmond-market-and-service-center",
    "phone": "(425) 869-6000",
    "address": "8990 154th Ave. NE Redmond, WA",
    "hours": "Mon. – Thurs. 10 a.m. – 4 p.m.",
    "description": "Free food from Hopelink Markets also located in Bellevue, Kirland/Northshore, Shoreline, Sno-Valley. At the Redmond location you can show up and get food the same day, once inside, you will be able to select your own nutritious, fresh and non-perishable food and personal care items. Redmond zip codes are 98052, 98053, 98073, 98074, no identification/ID, no documents necessary, just fill out a form with a name.",
    "latitude": "47.6818734",
    "longitude": "-122.134173"
  },
  {
    "id": "b682b713-b3c2-4e7e-8e09-6339fe90898d",
    "category": "Shelter",
    "city": "Seattle, WA",
    "name": "Hospitality House",
    "website": "http://hospitalityhousesouthking.org",
    "phone": "(206) 242-1860",
    "address": "1419 SW 150th St., Burien, WA 98166",
    "hours": "Phone screening: 7 days a week 9 a.m.–7 p.m.",
    "description": "Dormitory-style shelter with stays up to three months, serving single, homeless woman-identifying individuals 18 and older. Can accept clients if at least six months since domestic violence situation was active. Cannot serve clients who have severe mental illness, current substance abuse problems, have violent criminal convictions, or are at least 6-months pregnant. Does not accept pets. Call for screening interview. No fees. Not a drop in shelter; phone screen is required for shelter.",
    "latitude": "47.46798140000001",
    "longitude": "-122.3535145"
  },
  {
    "id": "09556715-7b2b-452c-a4ab-6c35bc1f2b1c",
    "category": "Shelter",
    "city": "Seattle, WA",
    "name": "Jan and Peter’s Place Women’s Shelter",
    "website": "http://compasshousingalliance.org/emergency-programs/janpetersplace",
    "phone": "(206) 474-1670",
    "hours": "6 p.m.–9 p.m. daily",
    "description": "Enhanced shelter providing 50 shelter beds for female-identifying people ages 18 and older, offering 24 hour access to a safe space and supports, on-site housing navigation support, case management services, and skill set development opportunities. Operated through Compass Housing Alliance. Referral only through the Women’s Referral Center, 2030 3rd Ave., which is open daily from 6 p.m. – 9 p.m.."
  },
  {
    "id": "99b9ecc1-678b-40db-9696-8a01b4c18353",
    "category": "Shelter",
    "city": "Seattle, WA",
    "name": "King County Emergency Family Shelter Community Intake Line",
    "phone": "(206) 245-1026",
    "hours": "Daily: 8 a.m.—11:30 p.m.",
    "description": "Offers intakes for emergency shelter for people who are living outside or in a car who have a child and pregnant women. Call intake line to be put on a daily waiting list for a callback from a King County Shelter. ID and documentation requirements vary depending on the shelter location."
  },
  {
    "id": "2e6dc989-05bc-4d72-9d1c-9a9eff4ddb58",
    "category": "Shelter",
    "city": "Seattle, WA",
    "name": "LifeWire",
    "website": "http://lifewire.org",
    "phone": "(425) 746-1940",
    "hours": "24/7",
    "description": "Helps adults, children, and youth who have been impacted by domestic violence. Offers survivor-driven, trauma-informed services including confidential emergency shelter, 24-hour helpline, counseling, housing stability, advocacy and support groups, for survivors of domestic violence of any gender, with or without children."
  },
  {
    "id": "4cfe226a-43cd-43f8-8698-da4fdb39c10e",
    "category": "Shelter",
    "city": "Seattle, WA",
    "name": "Low Income Housing Institute (LIHI)",
    "website": "http://lihihousing.org/housing",
    "phone": "(206) 443-9935",
    "address": "1253 S Jackson St. Seattle, WA 98144",
    "hours": "9 a.m.–5 p.m.",
    "description": "All housing applications for LIHI properties are handled by the staff at the individual properties. Waiting list units are all rentals where rent is 30 percent of your household’s monthly income. For wait-listed properties, fill out pre-application form. View website to see properties.",
    "latitude": "47.598874",
    "longitude": "-122.3149208"
  },
  {
    "id": "e6b719a0-a74b-414f-a556-6c3e11734936",
    "category": "Shelter",
    "city": "Seattle, WA",
    "name": "Mary's Place Family Shelters",
    "website": "http://marysplaceseattle.org",
    "phone": "(206) 621-8474",
    "hours": "Call intake 8 a.m.–11 p.m. 7 days a week. (206) 245-1026",
    "description": "Mary's Place Family Shelters offers overnight shelter for families (men and women) with children at several locations in King County. They accept families with pets. Call the Emergency Family Shelter Intake Line, 8 a.m.–11 p.m., 7 days a week, for info and intake; (206) 245-1026 or visit MarysPlaceSeattle.org/Outreach-Request. No walk-ins."
  },
  {
    "id": "3755f215-a387-4d9b-9d3a-f058235a78d2",
    "category": "Shelter",
    "city": "Seattle, WA",
    "name": "New Beginnings",
    "website": "http://newbegin.org",
    "phone": "24/7 Helpline: (206) 737-0242 Office: (206) 783-4520",
    "hours": "Helpline: 24/7 ; Office: Mon.–Fri.: 9 a.m.–5 p.m.",
    "description": "Services include confidential housing, helpline, legal advocacy, counseling, support groups and safety planning, serving survivors with or without children, who are abused by partners in intimate relationships. Call helpline for information and intake. No fees."
  },
  {
    "id": "b9cd367a-a9e3-46fd-8a52-92cdcce1565d",
    "category": "Shelter",
    "city": "Seattle, WA",
    "name": "New Bethlehem Day Center",
    "website": "http://ccsww.org/services/new-bethlehem-programs",
    "phone": "(425) 679-0354",
    "address": "8045 120th Ave NE., No. 100 Kirkland, WA",
    "hours": "7 days a week, 10 a.m.–2 p.m.",
    "description": "Provides essential services including: showers, laundry, computers, social services, snack and dinner. Provides grab-and-go meals, navigation to shelters and other emergency resources and social services.",
    "latitude": "47.6762185",
    "longitude": "-122.1815138"
  },
  {
    "id": "851edf5e-174c-4cd1-8825-40c0316c817b",
    "category": "Shelter",
    "city": "Seattle, WA",
    "name": "New Horizons",
    "website": "http://nhmin.org/get-help",
    "phone": "(206) 374-0866",
    "address": "2709 3rd Ave, Seattle, WA 98121",
    "hours": "Day program: Mon., Tues., Thurs., 3–8 p.m.; Wed., 2–8 p.m. Shelter: 9 p.m.–8 a.m. every day Dinner: Mon.-Thurs., 7 p.m., Fri.-Sat., 9 p.m. Extended shelter hours: Mon.-Fri., 9 p.m.–11 a.m.",
    "description": "Serves young people all ages up to 25. Assists with housing placement, retrieving government documents, and other barriers to exiting the streets. Young Adult Shelter (18 and older only) offers 15 resident beds and 15 first-come, first-served beds nightly, meals provided. To sign-up call 206-374-0866 between 10 a.m.–4 p.m. or stop by. Day program offers opportunity to explore interests like writing or music, and referrals to medical, health and education providers. Employment program and coaching available. A youth medical clinic is held every Wednesday.",
    "latitude": "47.6171505",
    "longitude": "-122.3495706"
  },
  {
    "id": "299f9ec9-22e2-44fb-a23b-c119bb69d285",
    "category": "Shelter",
    "city": "Seattle, WA",
    "name": "Operation Nightwatch",
    "website": "http://seattlenightwatch.org/get-help/nightwatch-shelter",
    "phone": "(206) 323-4359",
    "address": "302 14th Ave, Seattle, WA 98122",
    "hours": "Nightly meals: 8 p.m. – 9:30 p.m. Nightly shelter placement: 7:30 – 10:30 p.m.",
    "description": "Nightly meal is served and transportation is available to drop off at various shelters around the city. Blanket and a Metro bus ticket offered. Operation Nightwatch also does street outreach, and provides some senior housing units. Valid ID required. Limited shelter options for women.",
    "latitude": "47.6044377",
    "longitude": "-122.3141941"
  },
  {
    "id": "47a728b6-9fac-4080-a14f-ada4b4959ba8",
    "category": "Shelter",
    "city": "Seattle, WA",
    "name": "Otto's Place",
    "website": "http://compasshousingalliance.org/emergency-programs/ottos-place",
    "phone": "(206) 474-1000",
    "address": "77 S Washington St. Seattle, WA 98104",
    "hours": "Mon. – Fri., 9 a.m. – 4 p.m.",
    "description": "Enhanced shelter with 155 personal sleeping spaces for male-identifying individuals age 18 and older, offering 24-hour access to a safe space and supports, on-site housing navigation support, case management services, and skill development opportunities, personal storage; service pets are welcome. 24/7. Operated through Compass Housing Alliance. Referrals are directed from the City of Seattle’s Hope Team.",
    "latitude": "47.600773",
    "longitude": "-122.3352057"
  },
  {
    "id": "430c64f8-24a5-451e-a33e-9d73ffe94af1",
    "category": "Shelter",
    "city": "Seattle, WA",
    "name": "PorchLight",
    "website": "http://porchlightcares.org",
    "phone": "425-698-1295",
    "address": "13668 SE Eastgate Way Bellevue, WA",
    "hours": "Rotating shelter for men: 7 p.m. – 7 a.m.; call before visiting in person",
    "description": "Day center and emergency shelter for men Men's programs offer permanent housing, rotating shelter, emergency shelter, day center, and case management. Shelter space first-come, first-served basis, priority going to men who spent the previous night at the shelter. In addition to accessing case management supports, the men are able to obtain three meals a day, washers, dryers, showers, and haircuts. Must have a current state picture I.D. Must allow CFH to run a criminal background check - anyone with a sex offense crime cannot be a member of the shelter. Must be willing to be drug- and alcohol-free, and willing to address any addiction issues. Must be willing to work one-on-one with a Housing Navigator.",
    "latitude": "47.580972",
    "longitude": "-122.158169"
  },
  {
    "id": "06b99108-6b18-4c18-b7bb-48f3246ba8f3",
    "category": "Shelter",
    "city": "Seattle, WA",
    "name": "Real Escape from the Sex Trade",
    "website": "http://restsurvivors.org/services/overview",
    "phone": "24/7 Hotline (206) 451-7378 HOTLINE@IWANTREST.COM",
    "address": "4215 Rainier Ave. S Suite B, Seattle, WA 98118",
    "hours": "24/7 Hotline (206) 451-7378 text and call at any time.",
    "description": "Serves individuals of all ages and genders who have been trafficked or involved in the sex trade—which can mean anything from trading sex for money or survival, to stripping, to being forced to sell sex by someone else. Offers a community of support, a women's shelter and housing, and resources like housing, employment, healthcare, transportation, rental assistance which opens 1st of each month at noon and closes when ten applications are received, mental health and chemical dependency services. Call or text the 24/7 Hotline (206) 451-7378.",
    "latitude": "47.5651157",
    "longitude": "-122.2889057"
  },
  {
    "id": "99140046-1cab-42c3-8760-1f1caa5e56c2",
    "category": "Shelter",
    "city": "Seattle, WA",
    "name": "ROOTS Young Adult Shelter",
    "website": "http://rootsinfo.org/needshelter",
    "phone": "(206) 632-1635",
    "address": "4541 19th Ave NE, Seattle, WA 98105",
    "hours": "Shelter every night 9 p.m. - 8 a.m., call or go in person at 8 p.m.",
    "description": "ROOTS provides safe emergency overnight shelter for young adults ages 18-25, and builds community, fosters dignity through access to essential services, and a safe place to sleep for young adults experiencing homelessness. Services offered in español. People seeking overnight shelter can call (206) 632-1635 or come between 8 pm - 8:30 pm and ask to be put on the list. Guests have access to case management, clothing toiletries, and breakfast and dinner. Government-issued photo ID is required within 15 stays, or a note from a case manager saying you are in the process of getting an ID. Pets are allowed with an agreement.",
    "latitude": "47.6624259",
    "longitude": "-122.3076048"
  },
  {
    "id": "d970d24a-4174-4f25-8fe8-9ea8951f3606",
    "category": "Shelter",
    "city": "Seattle, WA",
    "name": "Safe Place",
    "website": "https://www.spl.org/programs-and-services/teens/safe-place",
    "phone": "call 1-800-422-TEEN (8336) Text or call - 24 hours a day, 7 days a week Website has link to interactive map to nearest location.",
    "hours": "11 a.m.- 7 p.m.",
    "description": "Safe Place gets youth off the streets by providing immediate access to community resources. Safe Place has a 24/7 phone hotline, 1 (800) 422-8336 where youth directly connect with Safe Place staff, who provide resources, connecting the young person to shelter services. Call or text hotline or enter a business displaying the yellow and black diamond-shaped Safe Place sign, or library, Seattle Parks and Recreation's Community Centers, Metro Transit buses, and YMCA facilities. Operated by Friends of Youth, in partnership with local businesses and non-profits across King County. Website has link to interactive map to nearest location."
  },
  {
    "id": "72d3df63-5582-442f-bbc0-881a2fa630d4",
    "category": "Shelter",
    "city": "Seattle, WA",
    "name": "Salvation Army Domestic Violence Program",
    "website": "http://seattle.salvationarmy.org/seattle_services/domestic-violence-programs-and-shelters",
    "phone": "(206) 447-9947 intake line, if no answer leave message with safe return phone number",
    "address": "1101 Pike St. Seattle, WA 98101",
    "hours": "Call Mon.–Fri.: 9 a.m.—4 p.m. and ask to speak to the “Advocate on Duty.”",
    "description": "Confidential domestic violence services focused on Domestic Violence/DV education, safety planning, and referrals. Serves adults, with or without children, within King County who are fleeing a DV situation. Language interpretation available. Limited basic needs and financial assistance. LGBTQ+ friendly, and language interpretation is provided. We do not inquire into immigration status.",
    "latitude": "47.6133405",
    "longitude": "-122.3282541"
  },
  {
    "id": "28561232-f844-48b9-b116-f7c2a71cf765",
    "category": "Shelter",
    "city": "Seattle, WA",
    "name": "Seattle Indian Center",
    "website": "http://seattleindiancenter.org",
    "phone": "(206) 329-8700",
    "address": "624 S Dearborn St. Seattle WA 98134",
    "hours": "Mon.— Fri.: 9 a.m. — 6 p.m.",
    "description": "Primary focus is serving the American Indian/Alaska Native community, and also serves people of color as well as anyone in need. Provides a multi-service center with advocacy and support services. Programs include outreach and engagement, drop-in center, food bank, and community hot meals. For community shelter services, call for intake and location.",
    "latitude": "47.5959979",
    "longitude": "-122.3254326"
  },
  {
    "id": "df635a9b-0c2a-4750-aec7-46f35e24e265",
    "category": "Shelter",
    "city": "Seattle, WA",
    "name": "Seattle Public Library, Central Branch, Social Services & Help for Those in Need",
    "website": "http://spl.org/programs-and-services/civics-and-social-services/social-services-referrals",
    "phone": "(206) 386-4636",
    "address": "1000 4th Ave. Seattle WA",
    "hours": "Mon.: 10 a.m.—6 p.m.; Tues.–Thurs.: 10 a.m. – 8 p.m.; Fri.–Sun.: 10 a.m.—6 p.m.",
    "description": "Specializing in services for the insecurely housed. The Community Resource Specialist can help you find shelter, mental health counseling, job training, food assistance, legal help, domestic violence support, medical help, and a social work team. Also offers to loan Wi-Fi hotspots and books to those living in encampments. Hotspots can be reserved online by any borrower, but the Library sets aside hotspots specifically for homeless communities to use and share.",
    "latitude": "47.60668270000001",
    "longitude": "-122.3326622"
  },
  {
    "id": "f64c8b2a-6680-40d6-bb51-40f48b7ede33",
    "category": "Shelter",
    "city": "Seattle, WA",
    "name": "Seattle’s Union Gospel Mission, Men’s Enhanced Shelter",
    "website": "http://ugm.org/what-we-do/stabilization/mens-shelter",
    "phone": "(206) 622-5177",
    "address": "318 2nd Ave. Ext. S, Seattle, WA 98104",
    "hours": "Intake: Mon.-Fri.: 9 a.m.—3 p.m.; participant sign-in: 5—7 p.m.; Meal times for all program participants: Mon.–Sun.: 7:30 a.m., 11:00 a.m., 5:00 p.m.; Enhanced Shelter meal times: 7 a.m., 5 p.m.",
    "description": "Operates a 90-day enhanced shelter program. First-come first-served basis for intake. Once enrolled, reserves a bed for 90 days while in good standing. Serves homeless men 18 and older. Meals are not for the public, only for program participants. Accepts offenders. Documents Required: ID. No fees.",
    "latitude": "47.6005427",
    "longitude": "-122.3305273"
  },
  {
    "id": "479ae139-c8fd-420d-81d2-6754b193888e",
    "category": "Shelter",
    "city": "Seattle, WA",
    "name": "SHARE/WHEEL, Shelter Screenings",
    "website": "http://sites.google.com/sharewheel.org/index/need-shelter/screening-schedule?authuser=0",
    "phone": "(206) 448-7889",
    "address": "1902 Second Ave. Seattle WA",
    "hours": "Mon., Thu.: 1pm; Tue., Wed., Fri., Sat.: 6pm",
    "description": "Screenings offices for co-ed or gender-specific, nighttime shelters to single homeless adults, 18 and older. Self-managed; run by the homeless members themselves. Service animals allowed, no pets. No fees. Being sober is required. Case managers available.",
    "latitude": "47.611468",
    "longitude": "-122.3405454"
  },
  {
    "id": "356d2447-362d-45c0-b32f-8446b91b3a6d",
    "category": "Shelter",
    "city": "Seattle, WA",
    "name": "SHARE/WHEEL, Shelter Screenings",
    "website": "http://sites.google.com/sharewheel.org/index/need-shelter/screening-schedule?authuser=0",
    "phone": "(206) 448-7889",
    "address": "1902 Second Ave. Seattle WA",
    "hours": "Mon., Thu.: 1pm; Tue., Wed., Fri., Sat.: 6pm",
    "description": "Screenings offices for co-ed or gender-specific, nighttime shelters to single homeless adults, 18 and older. Self-managed; run by the homeless members themselves. Service animals allowed, no pets. No fees. Being sober is required. Case managers available.",
    "latitude": "47.611468",
    "longitude": "-122.3405454"
  },
  {
    "id": "89030d1b-c93a-42e9-bf4a-ea624937cd5c",
    "category": "Shelter",
    "city": "Seattle, WA",
    "name": "Solid Ground",
    "website": "http://solid-ground.org/get-help",
    "phone": "DSHS Benefits Help: (206) 694-6742; Tenant Info Hotline: (206) 694-6767",
    "address": "1501 N 45th St. Seattle WA",
    "hours": "DSHS/state benefits assistance: 24-hour line; Tenant services: Mon., Thurs., 10:30 a.m. – 1:30 p.m.",
    "description": "Legal services to help clients obtain and retain public benefits like SNAP food stamp/EBT, Medicaid/health insurance, government cash assistance, and more. Provides information and referral for tenants facing eviction or struggling with other rental issues. Provides references to food and nutrition assistance programs, as well as rental assistance and shelter diversion through 211. Serves low-income residents of King County. No restrictions for advice and referrals. No fees.",
    "latitude": "47.6611921",
    "longitude": "-122.3389393"
  },
  {
    "id": "2457a9b9-9898-4aba-bd02-c5afb6eeb820",
    "category": "Shelter",
    "city": "Seattle, WA",
    "name": "Solid Ground - Housing Resources",
    "website": "http://solid-ground.org/get-help/housing",
    "phone": "(206) 694-6700",
    "address": "1501 N. 45th St. Seattle WA",
    "hours": "Wed. 11am - 3pm",
    "description": "Solid Ground provides various housing program resources. Call (206) 299-2500 for Solid Ground’s confidential Domestic Violence shelter services. Other services available by referral through Coordinated Entry with 211. Whether you have lost your home and need shelter – or need support to stay in your current home – Solid Ground can connect you with information, resources and referrals to support your housing stability.",
    "latitude": "47.6611921",
    "longitude": "-122.3389393"
  },
  {
    "id": "96e6e4f1-d088-4a5d-91d1-0e51b86a785c",
    "category": "Shelter",
    "city": "Seattle, WA",
    "name": "Sophia Way",
    "website": "http://sophiaway.org",
    "phone": "(425) 896-7385; Shelter intake line: (425) 598-2608",
    "address": "3032 Bellevue Way NE, Bellevue, WA",
    "hours": "Day center: everyday, 8 a.m. – 3 p.m.; Lunch: everyday, 11:30 a.m.",
    "description": "Day center, emergency shelter, and extended-stay shelter. Serves adult homeless women, including trans women. Offers support on the journey from homelessness to safe and stable living. Provides place to rest and sleep, food, access to necessities, support for healing and recovery, 24/7 shelter, and case management. Shelter intake line accepts calls on the third Monday of each month, or submit form via website.",
    "latitude": "47.63832",
    "longitude": "-122.2011665"
  },
  {
    "id": "e48ff9d0-1ed3-4fb7-aeef-4f5ec4c7210e",
    "category": "Shelter",
    "city": "Seattle, WA",
    "name": "Southeast Youth & Family Services",
    "website": "http://seyfs.org",
    "phone": "(206) 721-5542",
    "address": "3722 S Hudson St. Seattle WA",
    "hours": "Mon. – Fri., 9 a.m. – 5 p.m.; early morning and evening appointments available",
    "description": "Individual and family counseling, employment assistance, case management, advocacy, information and referral and crisis intervention. Serves African and Asian immigrant and refugee individuals and families. Dedicated to helping youth and families overcome traumas of economic and educational inequality, disparities in foster care and the criminal justice system, and other forms of institutional racism. Call for appointment. No fees for most services.",
    "latitude": "47.55722",
    "longitude": "-122.2850874"
  },
  {
    "id": "9179b235-bca3-46b5-923f-3baa9d78ce53",
    "category": "Shelter",
    "city": "Seattle, WA",
    "name": "Therapeutic Health Services, Eastside",
    "website": "http://ths-wa.org/locations/eastside-branch",
    "phone": "(425) 747-7892",
    "address": "1412 140th Place NE, Bellevue WA",
    "hours": "Mon.–Fri.: 7 a.m.–4:30 p.m.",
    "description": "Individual and group counseling for mental health and post-traumatic stress disorder, culturally competent counseling. Provides Chemical Dependency Assessments, Medication-Assisted Treatment (Methadone/Suboxone), Adult Mental Health Services, Pregnant and Parenting Program (P3), Veterans Services, African-American Ethnic Mental Health Specialty, Crisis Intervention, Medical Exams, Medication Management. Sliding-fee scale based on the patient’s level of income, and accepts all Apple Health/Medicaid.",
    "latitude": "47.6236284",
    "longitude": "-122.1513547"
  },
  {
    "id": "aa865fb0-7b70-45f9-91be-ceaf08621409",
    "category": "Shelter",
    "city": "Seattle, WA",
    "name": "Union Jobs at MLK Labor",
    "website": "http://mlklabor.org/union-jobs",
    "phone": "(206) 441-8510",
    "description": "Online list of open union jobs for living wages and benefits. Full time or part time, many entry level union jobs such as customer service, hospitality field, food service, cashiering, working in a grocery store, barista, cooks, retail sales, painter, human services, airport agents, hotel attendants, warehouse processing, and many others. Shows description of employer company, each union, job duties, pay compensation and details. Apply online by registering to log in. After applying for a job online, MLK Labor offers, when possible, to advocate for qualified applicants to be hired, just let them know at unionjobs@mlklabor.org"
  },
  {
    "id": "43737243-7c4c-4572-8e7e-45e4c5749514",
    "category": "Shelter",
    "city": "Seattle, WA",
    "name": "University Heights Center",
    "website": "http://uheightscenter.org",
    "phone": "General services inquiries: (206) 527-4278; Safe Lot cars intake: (501) 291-0360; Safe Lot RV intake: (571) 279-0451",
    "address": "5031 University Way NE Seattle WA",
    "hours": "Designated parking spots are reserved Mon. – Fri.: 7 p.m. — 7:30 a.m.; Sat.: 4 p.m. — Mon.: 7:30 a.m.; breakfast: Sun.: 9:30 – 10:30 a.m.; lunch: Sun.: 12 – 2 p.m.; dinner: Wed., Fri. – Sun.: 6 – 8 p.m.; mobile medicine van: 1st and 3rd Fri. of each month: 5 – 7 p.m.; annual warm winter supplies drive: 1st Sun. of November",
    "description": "Safe Lot program provides individuals with a safe and stable place to park their vehicles overnight so they may remain compliant with local laws, have access to restroom facilities, and be able to regularly access social services. Designed for people who are experiencing homelessness and using their vehicle as their primary residence. Individuals interested in the Safe Lot program must own their vehicle and have active insurance for their vehicle to be eligible. Residents must also take and pass a background check, as UHeights Center serves young children. Vehicle residency outreach team is available for individuals if they're not in Safe Lot. Free meal services available onsite almost every day of the week, and a community sock box is available 24/7. Health services also provided twice a month.",
    "latitude": "47.66613299999999",
    "longitude": "-122.3137458"
  },
  {
    "id": "702257bc-ce0c-4b65-a2c8-9fdabf23b224",
    "category": "Shelter",
    "city": "Seattle, WA",
    "name": "Urban League Metropolitan Seattle (ULMS), Young Adult Shelter",
    "website": "http://urbanleague.org/homeless-outreach",
    "phone": "(206) 639-7477",
    "address": "123 21st Ave. Seattle WA",
    "hours": "24/7",
    "description": "Urban League of Metropolitan Seattle (ULMC) 24 Hour Young Adult Shelter serves ages 18 – 24 years old, Central District, All gender identities welcome, All races welcome, All sexual orientations welcome. Staffed at all times for immediate assistance. Call the shelter (206) 639-7477 for intake. Provides meals, shower, clean clothes, housing search, professional development (resume building, mock interviews, job searching, etc.), and case management assessment. ULMS empowers African Americans and other diverse underserved communities to thrive by securing educational, economic opportunities. ULMC's vision is Equity for all.",
    "latitude": "47.6023571",
    "longitude": "-122.3052421"
  },
  {
    "id": "889decd5-e914-4f16-bc71-9bfb18b23d69",
    "category": "Shelter",
    "city": "Seattle, WA",
    "name": "William Booth Center",
    "website": "https://seattle.salvationarmy.org/seattle_services/william-booth-center/",
    "phone": "(206) 621-0145",
    "address": "811 Maynard Ave. S Seattle WA",
    "hours": "Phone hours: 24/7 Mon. - Fri., 9:30 a.m. – 5:45 p.m; Sat., 9 a.m. to 4:45 p.m.",
    "description": "Transitional housing with case management for homeless men 18 and older. Maximum stay varies by program. Performs background checks. Entry done through a process established by the VA. Fees are determined on a case-by-case basis. Referral from a partner organization required. Partners are King County Veterans’ Program, FareStart and Salvation Army off-site shelter.",
    "latitude": "47.5953271",
    "longitude": "-122.3254219"
  },
  {
    "id": "544987db-64bc-4a51-af68-dc4cfa6c406f",
    "category": "Shelter",
    "city": "Seattle, WA",
    "name": "Youth Care, Orion Center",
    "website": "http://youthcare.org/get-help",
    "phone": "(206) 622-5555",
    "address": "1828 Yale Avenue Seattle WA",
    "hours": "Day center: Mon. – Fri., 10 a.m. – 6 p.m. Breakfast: Mon. – Fri., 10 – 10:30 a.m.; Lunch: Mon. – Fri., 12:15 – 1:00 p.m.; Dinner: Mon. – Fri., 5 – 5:45 p.m. Wed. closed 1:00 - 3:00 p.m.",
    "description": "Day drop-in center all ages up to 24. Provides meals, computers, laundry, showers, clothing, medical care, lockers, case management, ID's (getting identification cards), referrals for legal aid, education, employment, connection to housing. YouthCare works to end youth homelessness, to ensure that young people are valued for who they are, empowered to achieve their potential, envisions a community where no young person experiences homelessness, all young people have the opportunity to thrive, and systems that oppress them are dismantled. Any form of ID or other documentation with birthdate required.",
    "latitude": "47.6182683",
    "longitude": "-122.3305192"
  },
  {
    "id": "1b9f7b2b-2003-4d4c-949d-8a63f3a208c7",
    "category": "Shelter",
    "city": "Seattle, WA",
    "name": "Youth Care, South Seattle Shelter",
    "website": "http://youthcare.org/get-help",
    "phone": "(206) 331-2363",
    "address": "9416 Rainier Ave. S Seattle WA",
    "hours": "Shelter: 24/7; Breakfast: Mon. – Fri., 9 – 10 a.m.; Lunch: 1 – 2 p.m.; Dinner: – 7 p.m.; Drop-in services: 8 a.m. – 8 p.m.; South Seattle Clinic: Medical Provider: Tues., 8 a.m. – Noon; Therapist: Wed., Fri,: 1 – 5 p.m.; Psychiatrist: Tues., 1 – 5 p.m.",
    "description": "YouthCare's South Seattle Shelter provides an overnight shelter every night 8 p.m. – 8:30 a.m. Serves ages 18 – 24. Provides meals, computers, laundry, showers, clothing, medical care, pet food, lockers, case management, overnight shelter, ID's (getting Identification Cards), legal aid, programs for education, employment, connection to housing. YouthCare works to end youth homelessness, to ensure that young people are valued for who they are, empowered to achieve their potential, envisions a community where no young person experiences homelessness, have the opportunity to thrive, and the systems that oppress them are dismantled. South Seattle Clinic provides health services several days during the week.",
    "latitude": "47.5200616",
    "longitude": "-122.2644196"
  },
  {
    "id": "76f726ab-b716-48ec-ae24-d0b79c66129a",
    "category": "Shelter",
    "city": "Seattle, WA",
    "name": "YWCA, Angeline's Day Center",
    "website": "http://ywcaworks.org/programs/angelines-day-center",
    "phone": "(206) 436-8650",
    "address": "2030 Third Ave. Seattle WA",
    "hours": "Mon. — Fri.: 10 a.m. — 4 p.m.",
    "description": "Provides drop-in services like meals, laundry, showers, lockers, and connections to community resources. Offers advocates to help with tasks like getting an Identification card/ID or completing SSI or DSHS paperwork.",
    "latitude": "47.6132021",
    "longitude": "-122.34178"
  },
  {
    "id": "1068ced5-a38f-499d-98b7-c330adc9ca2e",
    "category": "Shelter",
    "city": "Seattle, WA",
    "name": "YWCA, Central Family Emergency Housing",
    "website": "http://ywcaworks.org/programs/central-family-emergency-housing",
    "address": "2820 E Cherry St. Seattle WA",
    "description": "Offers culturally appropriate services to homeless families of color, including emergency housing at two enhanced shelters, and other shelter and transitional units. On-site after school program, domestic violence support and advocacy, chemical dependency and mental health services, nurse services, a food bank, teen group and life skills workshops.",
    "latitude": "47.6082256",
    "longitude": "-122.2953349"
  },
  {
    "id": "68d5bcdb-2113-4fa8-b03f-dee7c390eec8",
    "category": "Shelter",
    "city": "Seattle, WA",
    "name": "YWCA, Pathways for Women",
    "website": "http://ywcaworks.org/programs/pathways-women",
    "phone": "(425) 774-9843 x226",
    "address": "6027 208th St. SW Lynnwood WA",
    "hours": "Mon. – Tues. 9:30 a.m. - 5 p.m.; Wed.: 1 - 5 p.m.; Thurs.: 9:30 a.m. - 5 p.m.; Fri.: 10 a.m. - 4:30 p.m.",
    "description": "45-day emergency shelter for single adult women and mothers with children. Strives to give all clients the opportunity to find decent, affordable, and safe housing for themselves and their children. Clients have their own room and meet regularly with an advocate to develop and execute a Housing Stability Action Plan. To apply for this program for eligibility and intake details, please call (425) 774-9843 x226.",
    "latitude": "47.8107351",
    "longitude": "-122.3150561"
  }
]