[
  {
    "id": "e59fbb8d-cb17-4559-a759-e880ea954d0c",
    "category": "Hotline",
    "city": "Seattle, WA",
    "name": "211",
    "website": "http://crisisconnections.org/king-county-2-1-1",
    "phone": "211 or 1-800-621-4636",
    "hours": "Mon. – Fri., 9 a.m. – 5 p.m.",
    "description": "2-1-1 is a free confidential community service and your one-stop connection to the local services you need, from utility assistance, food, housing, health, child care, after school programs, elder care, crisis intervention and much more."
  },
  {
    "id": "fd803e6e-2dc0-430d-bee9-143b29e07603",
    "category": "Hotline",
    "city": "Seattle, WA",
    "name": "988, National Suicide Prevention Lifeline",
    "website": "http://988lifeline.org",
    "phone": "988",
    "hours": "24/7",
    "description": "Trained staff help people who are experiencing mental-health related distress and connects people to accessible and compassionate support. Mental health-related distress could include thoughts of suicide, mental health or substance use crisis, and any other kind of emotional distress."
  },
  {
    "id": "faa93627-26fd-4896-bf28-e816612be96e",
    "category": "Hotline",
    "city": "Seattle, WA",
    "name": "Call BlackLine",
    "website": "http://callblackline.com",
    "phone": "800-604-5841",
    "hours": "24 hours, 7 days a week",
    "description": "BlackLine 800-604-5841 is a 24-hours a day, 7 days a week hotline you can call or text. BlackLine provides a space for peer support, counseling, witnessing and affirming the lived experiences to folxs who are most impacted by systematic oppression with an LGBTQ+ Black Femme Lens. BlackLine prioritizes BIPOC (Black, Indigenous and People of Color). BlackLine is anonymous and confidential and can provide immediate crisis counseling to those who call upset, need to talk with someone immediately, or are in distress."
  },
  {
    "id": "822d8684-2805-43b5-b64f-9a29506b1704",
    "category": "Hotline",
    "city": "Seattle, WA",
    "name": "Crisis Connections",
    "website": "http://crisisconnections.org/king-county-2-1-1",
    "phone": "2-1-1 For assistance within King County: 1 (800) 621-4636",
    "hours": "Mon. - Fri., 8 a.m. – 6 p.m.",
    "description": "Connects people with information on all health and human services in King County, such as housing assistance, help with financial needs, legal assistance, or help finding the nearest food bank, or hot meals. Provides pre-screening for food stamps. Call or submit a message on the 2-1-1 website. No fees."
  },
  {
    "id": "dd9448fd-7147-4392-8885-46d4afbfbaab",
    "category": "Hotline",
    "city": "Seattle, WA",
    "name": "Domestic Violence Hotline",
    "website": "http://thehotline.org",
    "phone": "(800) 799-7233",
    "hours": "24 hours a day, 7 days a week",
    "description": "Hotline to talk confidentially with someone if you are experiencing domestic violence, seeking resources or information, or questioning unhealthy aspects of a romantic partner relationship. Call the hotline, use the chat feature on website, or text \"START\" to 88788 to connect with an advocate, interpretation available."
  },
  {
    "id": "58821bbc-0c2f-41d4-b304-33b20aa98342",
    "category": "Hotline",
    "city": "Seattle, WA",
    "name": "Evergreen Council on Problem Gambling",
    "website": "http://evergreencpg.org",
    "phone": "(800) 547-6133",
    "address": "1821 Fourth Ave. E, Olympia WA",
    "hours": "24/7",
    "description": "Programs and services are available for Problem Gamblers, family members, friends, and even employers to address the harm that may result from a gambling problem. Outpatient and residential programs available.",
    "latitude": "47.0458109",
    "longitude": "-122.8766505"
  },
  {
    "id": "35a4114c-29b1-4c33-a2ae-d3d18790d88c",
    "category": "Hotline",
    "city": "Seattle, WA",
    "name": "Gamblers Anonymous",
    "website": "http://gamblersanonymous.org",
    "phone": "(855) 222-5542",
    "hours": "24/7",
    "description": "Gamblers anonymous is a 12 step program. Hotline and support group meetings to address problem gambling."
  },
  {
    "id": "d00e58ee-b0e2-47b2-babd-c7b5c90481e8",
    "category": "Hotline",
    "city": "Seattle, WA",
    "name": "IKRON Corporation",
    "website": "http://seattle.ikron.org",
    "phone": "(425) 242-1713",
    "address": "3805 108th Ave. NE, No.204, Bellevue WA",
    "hours": "Mon.–Fri.: 8:30 a.m.–5 p.m.; Sat.: by appointment only",
    "description": "Outpatient counseling services for mental health and substance use disorder needs. Agency provides Department of Behavioral Health and Recovery/DBHR-certified services. Serves everyone. Accepts Apple Health (Medicaid) only.",
    "latitude": "47.645218",
    "longitude": "-122.194839"
  },
  {
    "id": "8efc0cc0-4b12-455b-a7d8-3f2a09b79b21",
    "category": "Hotline",
    "city": "Seattle, WA",
    "name": "King County Sexual Assault Resource Center",
    "website": "http://kcsarc.org",
    "phone": "(888) 998-6423",
    "address": "707 S. Grady Way, No. 300, Renton WA",
    "hours": "Resource line: 24/7; main office: Mon.-Fri.: 9 a.m.—5 p.m.",
    "description": "Victim-advocacy organization that provides critical support, tools, and direct mental and behavioral health services to children, teens, women and men who are victims of sexual assault.",
    "latitude": "47.4717992",
    "longitude": "-122.2093823"
  },
  {
    "id": "bef7f3b1-b363-480c-b4ad-d600e637c3b5",
    "category": "Hotline",
    "city": "Seattle, WA",
    "name": "LifeWire",
    "website": "http://lifewire.org",
    "phone": "(425) 746-1940",
    "hours": "24/7",
    "description": "Helps adults, children, and youth who have been impacted by domestic violence. Offers survivor-driven, trauma-informed services including confidential emergency shelter, 24-hour helpline, counseling, housing stability, advocacy and support groups, for survivors of domestic violence of any gender, with or without children."
  },
  {
    "id": "b13b4920-255a-4d2b-853a-3fd333bf2118",
    "category": "Hotline",
    "city": "Seattle, WA",
    "name": "Mothers for Police Accountability",
    "website": "http://mothersforpoliceaccountability.org",
    "phone": "(206) 329-2033",
    "hours": "Hotline: 24 hours, 7 days a week",
    "description": "24-hour phone line to report police violence and get support. Trained volunteers are ready to receive complaints and assist callers in composing and filing their complaints with the appropriate jurisdiction and alerting elected officials. Serves everyone. No fees."
  },
  {
    "id": "5a722e05-4568-44be-922f-5771bafe7263",
    "category": "Hotline",
    "city": "Seattle, WA",
    "name": "Narcotics Anonymous",
    "website": "http://seattlena.org",
    "phone": "(206) 790-8888",
    "hours": "24/7; support group meeting times vary",
    "description": "Support groups and a 24-hour helpline for anyone who has a desire to stop using drugs. Call for support and for information on meeting times and sites, or text your zipcode for an auto-response with five meeting times and locations in your area. No fees."
  },
  {
    "id": "9526a5ca-4aa2-43a0-ba11-0c318118a928",
    "category": "Hotline",
    "city": "Seattle, WA",
    "name": "National Problem Gambling Helpline",
    "website": "http://ncpgambling.org/help-treatment",
    "phone": "(800) 426-2537",
    "hours": "24/7",
    "description": "Call the 24-hour hotline to be connected to local resources for those seeking help for a gambling problem. Peer support network is available online at the website."
  },
  {
    "id": "d0fbd030-2281-4ee9-b069-4adc7506d169",
    "category": "Hotline",
    "city": "Seattle, WA",
    "name": "New Beginnings",
    "website": "http://newbegin.org",
    "phone": "24/7 Helpline: (206) 737-0242 Office: (206) 783-4520",
    "hours": "Helpline: 24/7 ; Office: Mon.–Fri.: 9 a.m.–5 p.m.",
    "description": "Services include confidential housing, helpline, legal advocacy, counseling, support groups and safety planning, serving survivors with or without children, who are abused by partners in intimate relationships. Call helpline for information and intake. No fees."
  },
  {
    "id": "366eaa1a-3cfe-4e13-b5c2-fd6b92fc2aa8",
    "category": "Hotline",
    "city": "Seattle, WA",
    "name": "Northwest Access Fund",
    "website": "http://nwaccessfund.org",
    "phone": "(206) 328-5116",
    "address": "1437 S Jackson St. Seattle WA",
    "hours": "Mon.–Fri.: 9 a.m.–5 p.m.",
    "description": "Financial products and services designed to meet the unique needs of people with disabilities and seniors. Offers one-on-one financial coaching, referrals, group workshops, and other resources designed to meet the needs of people with disabilities with low-incomes or accessing social security benefits. Services include low interest loans to purchase wheelchairs, assistive technology, hearing aids, dentures, computer adaptations, transportation adaptations, and more.",
    "latitude": "47.599027",
    "longitude": "-122.312042"
  },
  {
    "id": "49d45f35-d4c7-4101-8510-a79ae815d360",
    "category": "Hotline",
    "city": "Seattle, WA",
    "name": "OneAmerica",
    "website": "http://weareoneamerica.org/who-we-are/about-oneamerica",
    "phone": "Office: (206) 723-2203, Hotline: (844)-RAID-REP",
    "address": "1225 S. Weller Street No. 430 Seattle WA",
    "hours": "Mon. – Fri., 9 a.m. – 5 p.m.",
    "description": "One America advocates Immigrant Defense Funds for immigrants who may not be able to afford an attorney, facilitates Know-your-rights trainings, direct action, grassroots organizing, and legislative action. By calling 1-844-RAID-REP and texting JOIN to (253)-201-2833, the community can protect itself. Sign up to stay tuned for action alerts and other opportunities to get involved.",
    "latitude": "47.59729919999999",
    "longitude": "-122.3159745"
  },
  {
    "id": "7fde2a3d-bc3a-4513-bb3d-91fec77c0b4e",
    "category": "Hotline",
    "city": "Seattle, WA",
    "name": "Real Escape from the Sex Trade",
    "website": "http://restsurvivors.org/services/overview",
    "phone": "24/7 Hotline (206) 451-7378 HOTLINE@IWANTREST.COM",
    "address": "4215 Rainier Ave. S Suite B Seattle WA",
    "hours": "24/7 Hotline (206) 451-7378 text and call at any time.",
    "description": "Serves individuals of all ages and genders who have been trafficked or involved in the sex trade—which can mean anything from trading sex for money or survival, to stripping, to being forced to sell sex by someone else. Offers a community of support, a women's shelter and housing, and resources like housing, employment, healthcare, transportation, rental assistance which opens 1st of each month at noon and closes when ten applications are received, mental health and chemical dependency services. Call or text the 24/7 Hotline (206) 451-7378.",
    "latitude": "47.5651157",
    "longitude": "-122.2889057"
  },
  {
    "id": "2aea0a99-8e91-43e4-bdff-f8204fb9f258",
    "category": "Hotline",
    "city": "Seattle, WA",
    "name": "Safe Place",
    "website": "https://www.spl.org/programs-and-services/teens/safe-place",
    "phone": "call 1-800-422-TEEN (8336) Text or call - 24 hours a day, 7 days a week Website has link to interactive map to nearest location.",
    "hours": "11 a.m.- 7 p.m.",
    "description": "Safe Place gets youth off the streets by providing immediate access to community resources. Safe Place has a 24/7 phone hotline, 1 (800) 422-8336 where youth directly connect with Safe Place staff, who provide resources, connecting the young person to shelter services. Call or text hotline or enter a business displaying the yellow and black diamond-shaped Safe Place sign, or library, Seattle Parks and Recreation's Community Centers, Metro Transit buses, and YMCA facilities. Operated by Friends of Youth, in partnership with local businesses and non-profits across King County. Website has link to interactive map to nearest location."
  },
  {
    "id": "1facd648-5ab9-4282-9f29-55863656502d",
    "category": "Hotline",
    "city": "Seattle, WA",
    "name": "Seattle Housing Authority",
    "website": "http://seattlehousing.org/housing",
    "phone": "(206) 615-3300",
    "address": "190 Queen Anne Ave. N Seattle WA",
    "hours": "Mon.–Fri.: 8 a.m.—5 p.m.",
    "description": "Provides various long-term, low-income rental housing programs. Long waiting lists exist for all programs; no emergency housing. Preference given to applicants who are homeless and/or who have income at or below 30% of Area Median Income, but will consider those at or below 80%. Visit in person or visit the website to obtain an application. Once on a waiting list, check in monthly to confirm need for housing. No fees for application.",
    "latitude": "47.6193962",
    "longitude": "-122.3562847"
  },
  {
    "id": "6f05b84a-d117-4e48-81d2-15bb8399c7de",
    "category": "Hotline",
    "city": "Seattle, WA",
    "name": "Seattle Intergroup",
    "website": "http://seattleaa.org",
    "phone": "(206) 587-2838",
    "address": "5507 6th Ave. S Seattle WA",
    "hours": "Mon. 10 a.m.—2 p.m.; Tues.—Fri.: 10 a.m.—6 p.m.; Sat.: 10 a.m.—2 p.m.",
    "description": "Helps people become acquainted with Alcoholics Anonymous, locate meetings, and make sober connections.",
    "latitude": "47.5531172",
    "longitude": "-122.3273494"
  },
  {
    "id": "b4791994-0079-49e7-81d1-3e96d6058923",
    "category": "Hotline",
    "city": "Seattle, WA",
    "name": "Solid Ground",
    "website": "http://solid-ground.org/get-help",
    "phone": "DSHS Benefits Help: (206) 694-6742; Tenant Info Hotline: (206) 694-6767",
    "address": "1501 N 45th St. Seattle WA",
    "hours": "DSHS/state benefits assistance: 24-hour line; Tenant services: Mon., Thurs., 10:30 a.m. – 1:30 p.m.",
    "description": "Legal services to help clients obtain and retain public benefits like SNAP food stamp/EBT, Medicaid/health insurance, government cash assistance, and more. Provides information and referral for tenants facing eviction or struggling with other rental issues. Provides references to food and nutrition assistance programs, as well as rental assistance and shelter diversion through 211. Serves low-income residents of King County. No restrictions for advice and referrals. No fees.",
    "latitude": "47.6611921",
    "longitude": "-122.3389393"
  },
  {
    "id": "b9a2dd5b-13cc-46de-b50f-9522325212d2",
    "category": "Hotline",
    "city": "Seattle, WA",
    "name": "Sound Health",
    "website": "http://sound.health",
    "phone": "(206) 901-2000; Supportive Services for Veteran Families Program: (206) 545-2344",
    "address": "1600 E Olive St. Seattle WA",
    "hours": "Daily: 8:30 a.m.-5 p.m.",
    "description": "Rapid-rehousing case management services and limited financial assistance in partnership with low-income veterans experiencing homelessness. Sound provides clinical model for mental health counseling in many categories with additional support services. Delivers health and human services.",
    "latitude": "47.6167538",
    "longitude": "-122.3105039"
  },
  {
    "id": "6828599c-ea62-4738-8748-d1acb2191f1d",
    "category": "Hotline",
    "city": "Seattle, WA",
    "name": "Southeast Youth & Family Services",
    "website": "http://seyfs.org",
    "phone": "(206) 721-5542",
    "address": "3722 S Hudson St. Seattle WA",
    "hours": "Mon. – Fri., 9 a.m. – 5 p.m.; early morning and evening appointments available",
    "description": "Individual and family counseling, employment assistance, case management, advocacy, information and referral and crisis intervention. Serves African and Asian immigrant and refugee individuals and families. Dedicated to helping youth and families overcome traumas of economic and educational inequality, disparities in foster care and the criminal justice system, and other forms of institutional racism. Call for appointment. No fees for most services.",
    "latitude": "47.55722",
    "longitude": "-122.2850874"
  },
  {
    "id": "16cf3f2c-fcfa-43af-ae1d-6ad8a58960fe",
    "category": "Hotline",
    "city": "Seattle, WA",
    "name": "Southwest Youth & Family Services",
    "website": "http://swyfs.org",
    "phone": "(206) 937-7680",
    "address": "4555 Delridge Way SW Seattle WA",
    "hours": "Mon. – Thu., 9 a.m. – 5 p.m., Fri., 9 a.m. – 3 p.m. Appointments preferred.",
    "description": "Immigration and cultural transition support, medical services, housing, legal and education. Offers mental health counseling for children, teens and families. Primarily serves Cambodian and Latino immigrants or refugees. Counseling has sliding scale fees and will accept Apple Health (Medicaid). Provides services in the areas of education, youth development, behavioral health, and family advocacy.",
    "latitude": "47.5619996",
    "longitude": "-122.3634826"
  },
  {
    "id": "d4cb5c97-1bab-457e-b579-20368c72b602",
    "category": "Hotline",
    "city": "Seattle, WA",
    "name": "The Bikery",
    "website": "http://thebikery.org",
    "phone": "info@thebikery.org",
    "address": "845 Hiawatha Pl. S Seattle WA",
    "hours": "Sat., Sun., 12 - 6 p.m.",
    "description": "Free bikes program for those experiencing homelessness. Helps you fix your bike yourself. You will have access to a wide range of tools and volunteer knowledge to help you as much (or as little) as you need. Refurbished discount bikes available to purchase. Bikes are donated by community members and refurbished by volunteers. They get donations every week and inventory changes quickly, so check back often.",
    "latitude": "47.5946604",
    "longitude": "-122.309476"
  },
  {
    "id": "24ec4136-b450-4dfd-8d5f-e9d1ff7ce3bc",
    "category": "Hotline",
    "city": "Seattle, WA",
    "name": "Therapeutic Health Services, Eastside",
    "website": "http://ths-wa.org/locations/eastside-branch",
    "phone": "(425) 747-7892",
    "address": "1412 140th Place NE, Bellevue WA",
    "hours": "Mon.–Fri.: 7 a.m.–4:30 p.m.",
    "description": "Individual and group counseling for mental health and post-traumatic stress disorder, culturally competent counseling. Provides Chemical Dependency Assessments, Medication-Assisted Treatment (Methadone/Suboxone), Adult Mental Health Services, Pregnant and Parenting Program (P3), Veterans Services, African-American Ethnic Mental Health Specialty, Crisis Intervention, Medical Exams, Medication Management. Sliding-fee scale based on the patient’s level of income, and accepts all Apple Health/Medicaid.",
    "latitude": "47.6236284",
    "longitude": "-122.1513547"
  },
  {
    "id": "4057438d-909a-4cb8-9be5-0efe02640ad0",
    "category": "Hotline",
    "city": "Seattle, WA",
    "name": "Trans Lifeline",
    "website": "http://translifeline.org",
    "phone": "(877) 565-8860",
    "hours": "Mon. – Fri., 10 a.m. – 6 p.m.",
    "description": "Trans Lifeline is a hotline available in the U.S. (and Canada) staffed by transgender people for transgender people. Can help if you're in crisis or considering self-harm. Anonymous and confidential. Emergency services are never called unless you ask. Even if you’re not in crisis or if you’re not sure that you’re trans, call if you need to talk to a trans peer. Website has additional resources that are trans verified, trans led, and BIPOC-led or -centered resources, where possible. Also assists getting new identification cards. Offers direct emotional and financial support to trans people in crisis."
  },
  {
    "id": "d88b7059-5edc-4696-b057-aa30ebd65b65",
    "category": "Hotline",
    "city": "Seattle, WA",
    "name": "Veterans Affairs Crisis Line",
    "phone": "988, press 1 for veterans",
    "hours": "24/7",
    "description": "Connects Veterans and Service members in crisis and their families and friends with qualified, caring VA responders through a confidential toll-free hotline, online chat, or text."
  },
  {
    "id": "fb21b3ce-9dcb-46d3-9020-19c3633b1867",
    "category": "Hotline",
    "city": "Seattle, WA",
    "name": "Washington Poison Center Information Line",
    "phone": "Emergency or Information Line: (800) 222-1222",
    "address": "155 NE 100th St., No. 100",
    "hours": "24/7",
    "description": "Provides immediate, free and expert treatment advice and assistance on the telephone in case of exposure to poisonous, hazardous or toxic substances. All calls are confidential.",
    "latitude": "47.7010101",
    "longitude": "-122.3265863"
  },
  {
    "id": "70ef3d7e-7534-4971-bb2b-a149683d5fd1",
    "category": "Hotline",
    "city": "Seattle, WA",
    "name": "Washington Recovery Helpline",
    "website": "http://warecoveryhelpline.org",
    "phone": "1-866-789-1511",
    "hours": "24/7",
    "description": "24-hour help for substance abuse, problem gambling, and mental health. Information and referrals for medication assisted treatment, and Opioid treatment such as Suboxone."
  },
  {
    "id": "7730fc7b-293a-47bf-a681-f5971d549fe8",
    "category": "Hotline",
    "city": "Seattle, WA",
    "name": "WA State Department of Health",
    "phone": "(800) 525-0127",
    "address": "111 Israel Rd. SE Tumwater, WA",
    "hours": "Mon. — Fri., 8 a.m. — 5 p.m.",
    "description": "Phone line provides updated information on COVID for Washington State. Can assist with scheduling appointments for vaccinations.",
    "latitude": "46.9845639",
    "longitude": "-122.9058323"
  },
  {
    "id": "c7da3a84-f15d-4a40-aa4d-8e1a7b680ba3",
    "category": "Hotline",
    "city": "Seattle, WA",
    "name": "WA State Department of Health",
    "phone": "(800) 525-0127",
    "address": "111 Israel Rd. SE Tumwater, WA",
    "hours": "Mon. — Fri., 8 a.m. — 5 p.m.",
    "description": "Phone line provides updated information on COVID for Washington State. Can assist with scheduling appointments for vaccinations.",
    "latitude": "46.9845639",
    "longitude": "-122.9058323"
  },
  {
    "id": "a6919358-0e78-430d-9cb5-3bfb822ae557",
    "category": "Hotline",
    "city": "Seattle, WA",
    "name": "YMCA, Employment Assistance and Training",
    "website": "http://seattleymca.org/social-impact-center/youth-young-adults/employment-education",
    "phone": "(206) 749-7550",
    "address": "932 Auburn Way S. Auburn WA",
    "hours": "Calling hours: Mon. - Fri.: 9 a.m. - 5 p.m. Arcadia daytime center: Sun. - Sat.: 1 - 6 p.m. Overnight shelter: Sun. - Sat.: 9 p.m. - 8 a.m.",
    "description": "Serves ages up to 25 years old. Arcadia daytime center serves ages 12 - 24, and overnight shelter serves ages 18 - 24. Services include training on interview skills/mock interviews, employment training program, filling out job applications, guidance on how to get a state ID or social security card, guidance on where to apply for unemployment, information on businesses that are currently hiring, and referrals to resources. Provides CEA (coordinated entry access) assessments and additional assistance to locating housing programs. HIV/AIDS testing available at Arcadia 1st and 3rd Thursday every month. Apply online or call (206) 749-7550.",
    "latitude": "47.29963919999999",
    "longitude": "-122.2204422"
  },
  {
    "id": "ac36d68f-f898-44f2-b350-480f82405ea4",
    "category": "Hotline",
    "city": "Seattle, WA",
    "name": "Youth Care, Education Programs",
    "website": "http://youthcare.org/homeless-youth-services/education",
    "phone": "(206) 694-4500",
    "address": "Main office: 2500 NE 54th St. Please call or visit website for locations of education programs.",
    "hours": "Mon. – Fri.: 9 a.m. – 5 p.m.",
    "description": "YouthCare works to end youth homelessness, to ensure that young people are valued for who they are and empowered to achieve their potential, envisions a community where no young person experiences homelessness, all young people have the opportunity to thrive, and the systems that oppress them are dismantled. Serves ages 12 - 24. Offers high school completion/GED programs and post-secondary education programs at various sites. Rental assistance, bus tickets, and meals also provided at associated shelters (ages 14 and above).",
    "latitude": "47.6679962",
    "longitude": "-122.2987918"
  }
]